City_ID,City,Country,Date,Lat,Lng,Max Temp,Humidity,Cloudiness,Wind Speed
0,Qaanaaq,GL,2022-05-07 18:08:51,77.484,-69.3632,19.58,73,99,1.83
1,Bluff,NZ,2022-05-07 18:08:51,-46.6,168.3333,57.79,81,89,7.18
2,Cape Town,ZA,2022-05-07 18:08:48,-33.9258,18.4232,59.27,73,0,10.0
3,Maniitsoq,GL,2022-05-07 18:08:52,65.4167,-52.9,32.59,72,22,10.54
4,Vestmannaeyjar,IS,2022-05-07 18:08:52,63.4427,-20.2734,45.21,78,90,22.08
5,Victoria,HK,2022-05-07 18:07:09,22.2855,114.1577,77.38,78,99,5.01
6,Provideniya,RU,2022-05-07 18:08:53,64.3833,-173.3,31.12,92,100,7.2
7,Albany,US,2022-05-07 18:08:53,42.6001,-73.9662,58.59,36,100,1.99
8,Rikitea,PF,2022-05-07 18:08:54,-23.1203,-134.9692,77.47,83,67,11.03
9,Takoradi,GH,2022-05-07 18:08:54,4.8845,-1.7554,81.75,78,99,6.53
10,Flinders,AU,2022-05-07 18:08:54,-34.5833,150.8552,56.17,59,0,8.99
11,San Cristobal,VE,2022-05-07 18:04:22,7.7669,-72.225,78.98,77,96,5.79
12,Portland,US,2022-05-07 18:07:42,45.5234,-122.6762,51.96,82,100,9.22
13,Rio Gallegos,AR,2022-05-07 18:08:55,-51.6226,-69.2181,59.05,33,0,33.38
14,Kamaishi,JP,2022-05-07 18:08:56,39.2667,141.8833,52.43,83,100,8.61
15,Oktyabrskiy,RU,2022-05-07 18:05:39,54.4815,53.471,46.85,58,44,2.3
16,Mataura,NZ,2022-05-07 18:08:56,-46.1927,168.8643,57.47,98,93,2.98
17,Isangel,VU,2022-05-07 18:08:56,-19.55,169.2667,75.25,69,21,15.73
18,Punta Arenas,CL,2022-05-07 18:07:29,-53.15,-70.9167,51.91,66,40,28.77
19,Alofi,NU,2022-05-07 18:08:57,-19.0595,-169.9187,80.1,76,47,8.23
20,Cabo San Lucas,MX,2022-05-07 18:08:57,22.8909,-109.9124,90.7,37,0,5.75
21,Mahebourg,MU,2022-05-07 18:08:58,-20.4081,57.7,78.26,88,40,9.22
22,Nikolskoye,RU,2022-05-07 18:08:58,59.7035,30.7861,53.49,82,30,4.36
23,Tirumullaivasal,IN,2022-05-07 18:08:59,11.2333,79.8333,84.9,78,77,8.86
24,Hobart,AU,2022-05-07 18:06:29,-42.8794,147.3294,53.46,73,40,11.5
25,Barrow,US,2022-05-07 18:08:12,71.2906,-156.7887,21.22,93,100,13.8
26,Monrovia,LR,2022-05-07 18:06:30,6.3005,-10.7969,81.36,83,26,9.26
27,Atuona,PF,2022-05-07 18:08:59,-9.8,-139.0333,78.66,72,46,16.96
28,Busselton,AU,2022-05-07 18:04:08,-33.65,115.3333,58.3,70,61,1.79
29,Vaini,TO,2022-05-07 18:09:00,-21.2,-175.2,71.76,94,75,9.22
30,Anadyr,RU,2022-05-07 18:05:41,64.75,177.4833,28.0,86,96,6.91
31,Khatanga,RU,2022-05-07 18:09:00,71.9667,102.5,-9.0,100,33,4.76
32,Pochutla,MX,2022-05-07 18:09:01,15.7432,-96.4661,91.81,33,99,7.18
33,Batagay-Alyta,RU,2022-05-07 18:08:13,67.8006,130.4114,7.41,95,99,3.87
34,Luanda,AO,2022-05-07 18:05:04,-8.8368,13.2343,78.8,89,20,5.75
35,Port Alfred,ZA,2022-05-07 18:09:01,-33.5906,26.891,64.18,85,90,1.99
36,Lebu,CL,2022-05-07 18:09:02,-37.6167,-73.65,58.71,70,18,9.44
37,Chuy,UY,2022-05-07 18:08:51,-33.6971,-53.4616,70.93,53,0,3.09
38,Ushuaia,AR,2022-05-07 18:09:02,-54.8,-68.3,53.26,50,20,18.41
39,Hasaki,JP,2022-05-07 18:09:03,35.7333,140.8333,61.2,89,94,6.53
40,Marsh Harbour,BS,2022-05-07 18:09:03,26.5412,-77.0636,81.21,68,8,18.05
41,Butaritari,KI,2022-05-07 18:09:04,3.0707,172.7902,80.98,80,94,13.65
42,Tessalit,ML,2022-05-07 18:05:41,20.1986,1.0114,94.95,9,20,15.93
43,Hermanus,ZA,2022-05-07 18:07:19,-34.4187,19.2345,55.8,77,11,8.05
44,Cockburn Town,TC,2022-05-07 18:05:20,21.4612,-71.1419,82.36,65,40,13.8
45,College,US,2022-05-07 18:09:05,64.8569,-147.8028,42.58,95,100,0.0
46,Carnarvon,AU,2022-05-07 18:05:16,-24.8667,113.6333,64.47,77,75,4.61
47,Tonantins,BR,2022-05-07 18:09:05,-2.8731,-67.8022,80.04,86,95,2.26
48,Codrington,AU,2022-05-07 18:10:06,-38.2667,141.9667,52.61,84,60,8.14
49,Ginir,ET,2022-05-07 18:09:34,7.1333,40.7,60.87,69,63,5.44
50,Corrales,US,2022-05-07 18:10:06,35.2378,-106.6067,84.38,11,0,8.05
51,Kapaa,US,2022-05-07 18:10:07,22.0752,-159.319,75.52,82,100,19.57
52,Salamanca,ES,2022-05-07 18:10:07,40.8333,-6.0,73.18,47,72,6.49
53,Yellowknife,CA,2022-05-07 18:09:31,62.456,-114.3525,35.4,91,100,24.27
54,Airai,TL,2022-05-07 18:10:08,-8.9266,125.4092,60.73,96,52,4.09
55,La Ronge,CA,2022-05-07 18:10:08,55.1001,-105.2842,55.35,44,18,2.86
56,Avarua,CK,2022-05-07 18:07:26,-21.2078,-159.775,77.05,88,40,0.0
57,Warrnambool,AU,2022-05-07 18:10:09,-38.3833,142.4833,53.82,81,75,11.83
58,Sorong,ID,2022-05-07 18:06:43,-0.8833,131.25,79.92,84,74,3.62
59,Muros,ES,2022-05-07 18:05:56,42.7762,-9.0603,75.69,43,100,5.12
60,Pontes E Lacerda,BR,2022-05-07 18:08:40,-15.2261,-59.3353,84.43,36,0,6.24
61,Saint George,US,2022-05-07 18:08:37,37.1041,-113.5841,85.95,16,0,13.8
62,Catumbela,AO,2022-05-07 18:10:10,-12.4314,13.5472,77.23,80,69,2.04
63,Bubaque,GW,2022-05-07 18:05:36,11.2833,-15.8333,77.9,76,4,15.82
64,Vila,PT,2022-05-07 18:10:10,42.0304,-8.1588,65.7,49,100,2.13
65,Kaitangata,NZ,2022-05-07 18:07:46,-46.2817,169.8464,54.05,91,100,4.59
66,Almaznyy,RU,2022-05-07 18:10:11,48.0448,40.045,46.27,51,55,5.5
67,Berlevag,NO,2022-05-07 18:10:12,70.8578,29.0864,39.0,81,20,29.93
68,Puerto Ayora,EC,2022-05-07 18:10:12,-0.7393,-90.3518,80.56,80,38,9.69
69,Ribeira Grande,PT,2022-05-07 18:10:13,38.5167,-28.7,64.8,68,20,5.75
70,Salalah,OM,2022-05-07 18:09:23,17.0151,54.0924,81.12,80,2,7.16
71,Hay River,CA,2022-05-07 18:10:13,60.8156,-115.7999,32.9,98,100,15.95
72,Sergeyevka,KZ,2022-05-07 18:10:14,53.88,67.4158,44.44,34,0,4.81
73,Bredasdorp,ZA,2022-05-07 18:10:14,-34.5322,20.0403,55.62,85,17,3.96
74,Saint-Ambroise,CA,2022-05-07 18:10:15,48.5501,-71.3324,55.58,25,1,5.3
75,Rocha,UY,2022-05-07 18:10:15,-34.4833,-54.3333,72.88,51,6,3.4
76,Jamestown,US,2022-05-07 18:05:33,42.097,-79.2353,61.52,43,0,18.41
77,Hobyo,SO,2022-05-07 18:10:15,5.3505,48.5268,83.17,83,57,19.53
78,Rio Grande,BR,2022-05-07 18:10:16,-32.035,-52.0986,77.11,61,0,5.84
79,Reconquista,AR,2022-05-07 18:06:21,-29.15,-59.65,74.84,54,92,6.62
80,Nottingham,GB,2022-05-07 18:07:43,52.9536,-1.1505,60.69,77,20,11.5
81,Arraial Do Cabo,BR,2022-05-07 18:10:17,-22.9661,-42.0278,76.86,69,40,6.91
82,Hilo,US,2022-05-07 18:08:59,19.7297,-155.09,83.28,88,100,6.91
83,Trollhattan,SE,2022-05-07 18:10:17,58.2333,12.4167,56.97,41,41,12.66
84,Namuac,PH,2022-05-07 18:10:18,18.6109,121.1657,79.52,85,95,9.31
85,Port Hedland,AU,2022-05-07 18:10:18,-20.3167,118.5667,71.65,64,2,6.91
86,Ust-Kuyga,RU,2022-05-07 18:10:18,70.0167,135.6,-5.01,99,24,6.38
87,Dikson,RU,2022-05-07 18:10:19,73.5069,80.5464,7.34,100,65,6.33
88,Pevek,RU,2022-05-07 18:10:19,69.7008,170.3133,23.38,95,100,4.99
89,Nome,US,2022-05-07 18:10:20,64.5011,-165.4064,32.16,86,100,20.71
90,Sampit,ID,2022-05-07 18:10:20,-2.5333,112.95,74.21,98,99,0.4
91,Mar Del Plata,AR,2022-05-07 18:09:10,-38.0023,-57.5575,73.42,62,0,21.85
92,Bethel,US,2022-05-07 18:09:32,41.3712,-73.414,54.64,57,100,12.66
93,Kuala Terengganu,MY,2022-05-07 18:11:21,5.3302,103.1408,80.2,88,98,9.84
94,Kununurra,AU,2022-05-07 18:07:31,-15.7667,128.7333,78.78,25,0,9.22
95,Cherskiy,RU,2022-05-07 18:08:46,68.75,161.3,28.31,96,99,1.59
96,Tabuk,PH,2022-05-07 18:11:22,17.4189,121.4443,75.47,90,78,4.27
97,Bichura,RU,2022-05-07 18:11:22,50.5881,107.6022,43.45,70,14,4.85
98,New Norfolk,AU,2022-05-07 18:11:23,-42.7826,147.0587,53.1,66,51,3.0
99,Shaoyang,CN,2022-05-07 18:11:24,27.2315,111.4525,69.3,94,99,2.64
100,Tuatapere,NZ,2022-05-07 18:11:24,-46.1333,167.6833,55.04,89,79,3.11
101,Kavieng,PG,2022-05-07 18:11:25,-2.5744,150.7967,82.63,78,65,17.98
102,Kodiak,US,2022-05-07 18:11:25,57.79,-152.4072,51.31,43,0,10.36
103,Oistins,BB,2022-05-07 18:11:26,13.0667,-59.5333,86.09,70,40,12.66
104,Esperance,AU,2022-05-07 18:11:26,-33.8667,121.9,57.52,48,73,16.75
105,Hithadhoo,MV,2022-05-07 18:08:32,-0.6,73.0833,84.2,76,65,15.57
106,Lorengau,PG,2022-05-07 18:11:27,-2.0226,147.2712,82.0,81,91,11.86
107,Yerbogachen,RU,2022-05-07 18:11:27,61.2767,108.0108,40.26,74,84,16.67
108,Aloleng,PH,2022-05-07 18:11:27,16.1307,119.7824,83.26,74,76,6.17
109,Kiknur,RU,2022-05-07 18:11:28,57.3034,47.2011,46.54,66,39,9.4
110,Progreso,MX,2022-05-07 18:11:28,21.2833,-89.6667,96.91,55,9,12.15
111,Kruisfontein,ZA,2022-05-07 18:11:29,-34.0033,24.7314,56.88,83,100,9.08
112,Isla Mujeres,MX,2022-05-07 18:11:29,21.2311,-86.731,87.85,69,98,11.74
113,Svetlogorsk,BY,2022-05-07 18:11:30,52.6333,29.7333,51.67,87,92,7.78
114,Hovd,MN,2022-05-07 18:11:30,48.0056,91.6419,61.74,26,100,7.96
115,Castro,BR,2022-05-07 18:11:31,-24.7911,-50.0119,66.15,46,35,4.56
116,Pajapan,MX,2022-05-07 18:11:31,18.25,-94.7,87.96,36,73,7.14
117,Mulki,IN,2022-05-07 18:11:31,13.1,74.8,83.48,78,40,3.44
118,Viedma,AR,2022-05-07 18:11:32,-40.8135,-62.9967,76.96,25,37,20.36
119,Tazovskiy,RU,2022-05-07 18:11:32,67.4667,78.7,1.53,98,12,7.99
120,Tukrah,LY,2022-05-07 18:11:33,32.5341,20.5791,65.44,77,1,9.46
121,Pisco,PE,2022-05-07 18:10:44,-13.7,-76.2167,69.85,78,24,11.5
122,Vangaindrano,MG,2022-05-07 18:11:34,-23.35,47.6,72.12,94,13,5.55
123,Noumea,NC,2022-05-07 18:11:34,-22.2763,166.4572,75.0,99,78,9.01
124,Sao Joao Da Barra,BR,2022-05-07 18:07:17,-21.6403,-41.0511,80.69,61,4,17.4
125,Bambous Virieux,MU,2022-05-07 18:08:02,-20.3428,57.7575,78.22,88,40,9.22
126,Kuminskiy,RU,2022-05-07 18:11:35,58.6667,66.5667,41.05,95,95,6.44
127,Adwa,ET,2022-05-07 18:11:35,14.1646,38.8955,75.79,43,90,4.29
128,San Patricio,US,2022-05-07 18:07:38,28.017,-97.5169,94.06,39,13,11.83
129,Olga,RU,2022-05-07 18:11:36,43.7444,135.2892,44.58,56,21,11.61
130,Nemuro,JP,2022-05-07 18:11:36,43.3236,145.575,46.85,98,100,28.88
131,Sakakah,SA,2022-05-07 18:11:36,29.9697,40.2064,69.82,20,1,4.76
132,East London,ZA,2022-05-07 18:11:37,-33.0153,27.9116,63.54,94,20,9.22
133,Willowmore,ZA,2022-05-07 18:11:38,-33.2926,23.4895,52.43,80,99,8.01
134,Lavrentiya,RU,2022-05-07 18:08:28,65.5833,-171.0,22.73,99,82,4.9
135,Grand Gaube,MU,2022-05-07 18:08:03,-20.0064,57.6608,78.39,73,9,7.0
136,Chimbote,PE,2022-05-07 18:11:38,-9.0853,-78.5783,71.11,75,59,11.05
137,Tougue,GN,2022-05-07 18:11:39,11.4667,-11.6,94.82,19,72,5.41
138,Cabra,ES,2022-05-07 18:07:40,37.4725,-4.4421,76.28,36,12,1.25
139,Port Elizabeth,ZA,2022-05-07 18:12:39,-33.918,25.5701,62.89,79,75,6.91
140,Acapulco,MX,2022-05-07 18:12:40,16.8634,-99.8901,84.02,65,100,6.91
141,Bontang,ID,2022-05-07 18:08:08,0.1333,117.5,79.03,88,100,4.52
142,Taltal,CL,2022-05-07 18:09:07,-25.4,-70.4833,62.35,80,92,6.24
143,Saskylakh,RU,2022-05-07 18:12:16,71.9167,114.0833,2.46,96,42,8.25
144,Yellandu,IN,2022-05-07 18:12:40,17.6,80.3333,85.6,55,91,3.65
145,Auki,SB,2022-05-07 18:12:41,-8.7676,160.7034,77.83,89,82,4.03
146,Dauphin,CA,2022-05-07 18:12:41,51.1494,-100.0502,72.59,46,94,14.25
147,Coquimbo,CL,2022-05-07 18:10:59,-29.9533,-71.3436,56.93,88,100,4.61
148,Andenes,NO,2022-05-07 18:12:07,69.3143,16.1194,33.78,86,75,19.57
149,Ilulissat,GL,2022-05-07 18:10:47,69.2167,-51.1,26.62,68,0,5.75
150,Kostrzyn,PL,2022-05-07 18:12:42,52.3985,17.2281,64.31,53,86,5.23
151,Port-Cartier,CA,2022-05-07 18:12:43,50.0334,-66.8654,41.11,57,17,4.81
152,Tyukalinsk,RU,2022-05-07 18:12:43,55.8732,72.1967,37.27,45,24,7.54
153,Ashcroft,CA,2022-05-07 18:12:44,50.7165,-121.2859,53.47,50,94,0.67
154,Dera Bugti,PK,2022-05-07 18:12:44,29.0307,69.151,91.78,11,0,4.94
155,Vao,NC,2022-05-07 18:12:44,-22.6667,167.4833,74.12,62,37,19.69
156,Sisimiut,GL,2022-05-07 18:12:45,66.9395,-53.6735,32.04,56,3,7.52
157,Enid,US,2022-05-07 18:12:45,36.3956,-97.8784,81.01,61,40,19.57
158,Inuvik,CA,2022-05-07 18:12:46,68.3499,-133.7218,32.11,88,100,5.3
159,Matara,LK,2022-05-07 18:12:46,5.9485,80.5353,79.81,91,63,9.06
160,Komsomolskiy,UZ,2022-05-07 18:07:49,40.4272,71.7189,77.97,35,0,4.05
161,La Puebla De Cazalla,ES,2022-05-07 18:10:44,37.2216,-5.3115,81.28,34,35,2.68
162,Dunedin,NZ,2022-05-07 18:12:47,-45.8742,170.5036,61.81,57,100,3.67
163,Labuhan,ID,2022-05-07 18:12:47,-6.8844,112.2051,79.61,87,60,4.88
164,Caluquembe,AO,2022-05-07 18:12:48,-13.7833,14.6833,62.85,58,81,4.63
165,Abu Samrah,SY,2022-05-07 18:12:48,35.3029,37.1841,59.7,50,14,13.53
166,Suratgarh,IN,2022-05-07 18:09:21,29.3167,73.9,95.59,12,0,7.61
167,Safaga,EG,2022-05-07 18:12:49,26.7292,33.9365,77.34,41,12,9.04
168,Tuktoyaktuk,CA,2022-05-07 18:12:50,69.4541,-133.0374,30.24,89,100,7.36
169,Buckeye,US,2022-05-07 18:12:20,33.3703,-112.5838,96.3,9,8,12.75
170,Businga,CD,2022-05-07 18:12:50,3.3333,20.8833,79.77,68,68,2.08
171,Inhambane,MZ,2022-05-07 18:12:51,-23.865,35.3833,71.58,83,0,0.0
172,Puerto Ayacucho,VE,2022-05-07 18:10:15,5.6639,-67.6236,78.01,83,96,5.39
173,Aasiaat,GL,2022-05-07 18:12:51,68.7098,-52.8699,25.27,77,40,5.06
174,Brae,GB,2022-05-07 18:12:52,60.3964,-1.353,46.08,59,44,9.22
175,Horqueta,PY,2022-05-07 18:12:52,-23.3428,-57.0597,84.85,30,11,2.75
176,Caronport,CA,2022-05-07 18:12:53,50.4501,-105.8179,57.4,71,100,1.54
177,Pyshchug,RU,2022-05-07 18:13:53,58.8873,45.7134,47.88,68,55,6.85
178,Kavaratti,IN,2022-05-07 18:13:54,10.5669,72.642,84.79,70,15,10.98
179,La Seyne-Sur-Mer,FR,2022-05-07 18:13:54,43.0982,5.8847,68.52,88,64,8.08
180,Srednekolymsk,RU,2022-05-07 18:13:55,67.45,153.6833,21.07,96,98,7.74
181,Tura,IN,2022-05-07 18:13:55,25.5198,90.2201,73.13,78,3,3.62
182,Eyl,SO,2022-05-07 18:13:56,7.9803,49.8164,83.84,78,40,15.39
183,Norman Wells,CA,2022-05-07 18:12:21,65.282,-126.8329,40.64,74,100,0.36
184,Tasiilaq,GL,2022-05-07 18:09:08,65.6145,-37.6368,32.16,70,94,5.66
185,Tiznit,MA,2022-05-07 18:13:57,29.5833,-9.5,83.01,15,62,9.71
186,San Quintin,MX,2022-05-07 18:10:20,30.4833,-115.95,65.12,72,52,13.65
187,Honningsvag,NO,2022-05-07 18:13:57,70.9821,25.9704,35.35,87,100,29.93
188,Nouadhibou,MR,2022-05-07 18:13:58,20.931,-17.0347,66.18,82,3,23.02
189,Chokurdakh,RU,2022-05-07 18:13:58,70.6333,147.9167,14.34,94,98,10.76
190,Sakata,JP,2022-05-07 18:13:59,38.9167,139.855,49.89,78,93,9.6
191,Tacoronte,ES,2022-05-07 18:13:59,28.4769,-16.4102,71.4,77,75,14.97
192,Buraydah,SA,2022-05-07 18:14:00,26.326,43.975,80.87,16,0,10.98
193,Katsuura,JP,2022-05-07 18:14:00,35.1333,140.3,62.62,90,81,5.39
194,Clyde River,CA,2022-05-07 18:14:01,70.4692,-68.5914,19.63,79,100,3.44
195,Boa Vista,BR,2022-05-07 18:09:35,2.8197,-60.6733,80.58,78,40,8.05
196,Port Hardy,CA,2022-05-07 18:14:01,50.6996,-127.4199,51.98,58,75,11.5
197,Sotouboua,TG,2022-05-07 18:14:02,8.5667,0.9833,84.72,52,79,3.0
198,Irshava,UA,2022-05-07 18:14:03,48.3167,23.0385,58.41,81,50,4.43
199,Husavik,IS,2022-05-07 18:14:03,66.0449,-17.3389,42.15,72,100,3.65
200,Souillac,MU,2022-05-07 18:14:04,-20.5167,57.5167,75.58,88,40,9.22
201,Saint Anthony,US,2022-05-07 18:10:21,45.0205,-93.218,72.93,34,0,19.57
202,Maturin,VE,2022-05-07 18:14:05,9.75,-63.1767,87.66,54,93,5.12
203,Faanui,PF,2022-05-07 18:14:05,-16.4833,-151.75,80.56,78,12,7.76
204,Marabella,TT,2022-05-07 18:14:06,10.3062,-61.4467,89.01,59,84,6.71
205,Kirn,DE,2022-05-07 18:14:07,49.7833,7.45,63.86,57,100,4.38
206,Gigmoto,PH,2022-05-07 18:14:07,13.7796,124.39,80.15,87,21,9.44
207,Zhigansk,RU,2022-05-07 18:12:14,66.7697,123.3711,22.75,88,100,6.96
208,Anloga,GH,2022-05-07 18:14:08,5.7947,0.8973,82.36,79,88,9.95
209,Poum,NC,2022-05-07 18:14:08,-20.2333,164.0167,76.28,71,17,15.08
210,Karratha,AU,2022-05-07 18:14:09,-20.7377,116.8463,75.81,68,11,7.16
211,Gien,FR,2022-05-07 18:14:09,47.6933,2.6309,67.44,74,75,5.46
212,Ahipara,NZ,2022-05-07 18:12:09,-35.1667,173.1667,56.41,84,80,3.31
213,Aklavik,CA,2022-05-07 18:14:10,68.2191,-135.0107,37.4,60,20,9.22
214,Vanavara,RU,2022-05-07 18:11:50,60.34,102.2797,33.64,75,52,17.11
215,Teguldet,RU,2022-05-07 18:14:10,57.3064,88.1667,28.11,68,76,13.53
216,Jiguani,CU,2022-05-07 18:14:11,20.3667,-76.4272,87.58,44,5,2.66
217,Namibe,AO,2022-05-07 18:14:11,-15.1961,12.1522,73.09,71,42,5.73
218,Zhezkazgan,KZ,2022-05-07 18:14:12,47.8043,67.7144,52.16,29,10,20.85
219,Te Anau,NZ,2022-05-07 18:10:50,-45.4167,167.7167,56.25,97,99,3.04
220,Yulara,AU,2022-05-07 18:14:12,-25.2406,130.9889,44.78,58,0,9.69
221,Nsanje,MW,2022-05-07 18:15:13,-16.92,35.262,71.08,82,7,2.33
222,Knysna,ZA,2022-05-07 18:15:13,-34.0363,23.0471,58.14,92,99,4.25
223,Tiksi,RU,2022-05-07 18:15:14,71.6872,128.8694,7.88,94,15,7.72
224,Khasan,RU,2022-05-07 18:15:14,42.4308,130.6434,45.86,44,0,6.96
225,Erdenet,MN,2022-05-07 18:15:15,49.0333,104.0833,44.46,67,3,6.29
226,Haines Junction,CA,2022-05-07 18:15:15,60.7522,-137.5108,33.75,86,100,2.3
227,Briancon,FR,2022-05-07 18:15:16,44.9,6.65,52.63,89,93,3.02
228,Guilin,CN,2022-05-07 18:15:16,25.2819,110.2864,69.91,96,99,2.17
229,Dondo,MZ,2022-05-07 18:15:17,-19.6094,34.7431,72.91,88,0,5.82
230,Sitka,US,2022-05-07 18:11:03,57.0531,-135.33,44.49,76,40,4.61
231,Ponta Do Sol,PT,2022-05-07 18:15:17,32.6667,-17.1,68.63,65,50,4.85
232,Shima,CN,2022-05-07 18:15:18,24.4478,117.8111,71.62,91,100,2.98
233,Havoysund,NO,2022-05-07 18:15:18,70.9963,24.6622,35.83,96,77,39.19
234,Torbay,CA,2022-05-07 18:15:19,47.6666,-52.7314,44.53,61,75,17.27
235,Nyrsko,CZ,2022-05-07 18:15:19,49.2939,13.1435,61.47,86,85,3.36
236,Twentynine Palms,US,2022-05-07 18:15:20,34.1356,-116.0542,88.25,23,18,5.99
237,Labrea,BR,2022-05-07 18:15:21,-7.2586,-64.7981,83.3,74,89,3.76
238,Cidreira,BR,2022-05-07 18:15:21,-30.1811,-50.2056,66.94,61,4,5.19
239,Garden City,US,2022-05-07 18:11:41,42.3256,-83.331,65.95,37,20,17.27
240,Rawson,AR,2022-05-07 18:15:22,-43.3002,-65.1023,76.78,28,24,14.36
241,Severo-Kurilsk,RU,2022-05-07 18:15:23,50.6789,156.125,38.66,91,72,1.88
242,Binzhou,CN,2022-05-07 18:15:24,37.3667,118.0167,54.19,25,100,6.6
243,Iqaluit,CA,2022-05-07 18:15:25,63.7506,-68.5145,28.13,42,75,12.66
244,Kahului,US,2022-05-07 18:15:25,20.8947,-156.47,73.85,80,20,13.8
245,Trat,TH,2022-05-07 18:15:26,12.5,102.5,82.87,89,92,3.2
246,Benghazi,LY,2022-05-07 18:15:27,32.1167,20.0667,66.43,76,5,19.82
247,Bambanglipuro,ID,2022-05-07 18:15:27,-7.95,110.2833,77.14,92,34,4.5
248,Tselinnoye,RU,2022-05-07 18:15:28,53.0833,85.6667,38.43,38,77,6.8
249,Ryotsu,JP,2022-05-07 18:15:28,38.0833,138.4333,51.85,73,99,5.39
250,Iraquara,BR,2022-05-07 18:15:28,-12.2486,-41.6194,82.11,31,32,10.2
251,Naze,JP,2022-05-07 18:15:29,28.3667,129.4833,70.72,84,76,5.1
252,Chokwe,MZ,2022-05-07 18:15:30,-24.5333,32.9833,71.44,62,0,7.11
253,Nanortalik,GL,2022-05-07 18:12:21,60.1432,-45.2371,40.33,73,100,6.44
254,Mbour,SN,2022-05-07 18:15:30,14.422,-16.9638,85.05,36,3,22.21
255,Bairiki,KI,2022-05-07 18:15:31,1.3292,172.9752,80.6,83,40,14.97
256,Killybegs,IE,2022-05-07 18:15:31,54.6333,-8.45,62.31,69,99,1.88
257,Kurilsk,RU,2022-05-07 18:15:32,45.2333,147.8833,45.93,94,94,18.01
258,Ta Khmau,KH,2022-05-07 18:15:33,11.4833,104.95,80.65,89,40,3.44
259,Atambua,ID,2022-05-07 18:15:33,-9.1061,124.8925,73.27,90,34,6.22
260,Batagay,RU,2022-05-07 18:15:34,67.6333,134.6333,6.91,93,45,1.66
261,Russell,US,2022-05-07 18:15:35,32.3502,-85.1999,78.96,42,20,12.66
262,Smithers,CA,2022-05-07 18:15:35,54.7804,-127.1743,46.72,46,100,5.75
263,Black Diamond,US,2022-05-07 18:15:27,47.3087,-122.0032,51.44,78,98,7.0
264,Boddam,GB,2022-05-07 18:15:36,57.4667,-1.7833,52.43,67,48,4.79
265,Esterhazy,CA,2022-05-07 18:15:36,50.65,-102.0843,63.16,69,100,19.48
266,Burgeo,CA,2022-05-07 18:15:21,47.6167,-57.6152,40.3,51,75,20.11
267,Narasannapeta,IN,2022-05-07 18:16:37,18.4167,84.05,82.06,80,71,3.36
268,Urumqi,CN,2022-05-07 18:16:38,43.801,87.6005,65.35,56,97,8.95
269,Les Escoumins,CA,2022-05-07 18:16:38,48.1111,-69.0236,40.35,37,9,6.64
270,Camargo,MX,2022-05-07 18:16:38,27.6667,-105.1667,90.41,9,1,3.85
271,Lagoa,PT,2022-05-07 18:16:39,39.05,-27.9833,60.8,67,42,4.56
272,Changji,CN,2022-05-07 18:16:39,44.0167,87.3167,68.79,56,100,8.95
273,Fort Nelson,CA,2022-05-07 18:16:40,58.8053,-122.7002,40.59,70,100,17.27
274,Padang,ID,2022-05-07 18:16:40,-0.9492,100.3543,75.25,86,100,4.41
275,Turbat,PK,2022-05-07 18:16:41,26.0023,63.044,86.09,46,0,9.78
276,Gravdal,NO,2022-05-07 18:16:41,68.1214,13.5031,36.84,59,99,26.04
277,Ostrovnoy,RU,2022-05-07 18:16:41,68.0531,39.5131,40.55,99,100,18.48
278,Presidencia Roque Saenz Pena,AR,2022-05-07 18:16:42,-26.7852,-60.4388,79.29,45,58,5.64
279,Bacolod,PH,2022-05-07 18:16:42,10.6667,122.95,80.2,80,33,10.11
280,Imaculada,BR,2022-05-07 18:16:43,-7.3897,-37.5092,81.66,46,80,3.85
281,Flin Flon,CA,2022-05-07 18:15:07,54.7682,-101.865,55.24,62,100,8.05
282,Georgetown,MY,2022-05-07 18:14:37,5.4112,100.3354,84.13,84,20,0.0
283,Bronnoysund,NO,2022-05-07 18:16:43,65.4625,12.1997,35.6,87,75,9.22
284,Wiang Sa,TH,2022-05-07 18:16:44,8.6359,99.3666,77.18,92,100,1.86
285,Teknaf,BD,2022-05-07 18:16:44,20.8624,92.3058,80.8,76,1,2.53
286,Artyom,AZ,2022-05-07 18:16:45,40.4723,50.333,53.74,90,68,29.19
287,Vila Franca Do Campo,PT,2022-05-07 18:16:45,37.7167,-25.4333,66.61,90,100,1.97
288,Sabang,ID,2022-05-07 18:16:46,5.8933,95.3214,82.58,76,99,10.22
289,Podgornoye,RU,2022-05-07 18:16:46,51.735,39.1496,46.62,53,0,2.24
290,Lusambo,CD,2022-05-07 18:16:46,-4.9667,23.45,75.81,73,72,1.81
291,Jacareacanga,BR,2022-05-07 18:16:47,-6.2222,-57.7528,89.29,58,89,3.89
292,Manaus,BR,2022-05-07 18:12:18,-3.1019,-60.025,84.7,83,75,5.75
293,Wawa,NG,2022-05-07 18:15:27,9.9022,4.4192,90.23,42,88,2.98
294,Buenos Aires,AR,2022-05-07 18:14:56,-34.6132,-58.3772,75.99,57,20,8.43
295,Shenzhen,CN,2022-05-07 18:14:44,22.5455,114.0683,77.27,86,97,1.25
296,Kajaani,FI,2022-05-07 18:16:48,64.2273,27.7285,41.05,93,20,6.91
297,Thompson,CA,2022-05-07 18:15:23,55.7435,-97.8558,64.56,55,40,10.36
298,Dudinka,RU,2022-05-07 18:16:48,69.4058,86.1778,11.62,96,38,12.68
299,Nisia Floresta,BR,2022-05-07 18:16:49,-6.0911,-35.2086,83.21,84,97,10.33
300,Ostroh,UA,2022-05-07 18:16:49,50.3294,26.5143,54.84,76,75,4.05
301,West Wendover,US,2022-05-07 18:16:50,40.7391,-114.0733,63.61,19,0,19.57
302,Harrogate,GB,2022-05-07 18:16:50,53.9908,-1.5373,56.3,67,20,6.91
303,Laguna,US,2022-05-07 18:16:50,38.421,-121.4238,69.06,47,0,5.75
304,Urbana,US,2022-05-07 18:16:51,40.1106,-88.2073,66.51,58,0,17.27
305,Kasongo-Lunda,CD,2022-05-07 18:16:51,-6.4667,16.8167,76.01,78,100,0.6
306,Touros,BR,2022-05-07 18:16:52,-5.1989,-35.4608,77.54,86,98,14.52
307,Inta,RU,2022-05-07 18:16:52,66.0317,60.1659,35.55,99,100,9.66
308,Bowen,AU,2022-05-07 18:16:52,-20.0167,148.2333,75.33,87,96,13.82
309,Hofn,IS,2022-05-07 18:16:53,64.2539,-15.2082,43.97,74,54,14.88
310,Colares,PT,2022-05-07 18:16:53,38.7992,-9.4469,74.88,43,0,12.66
311,The Valley,AI,2022-05-07 18:17:54,18.217,-63.0578,84.06,65,40,16.11
312,Wanaka,NZ,2022-05-07 18:17:54,-44.7,169.15,54.18,94,97,7.16
313,Birecik,TR,2022-05-07 18:17:55,37.0294,37.9903,61.81,62,47,11.05
314,Klaksvik,FO,2022-05-07 18:17:55,62.2266,-6.589,47.32,67,98,3.42
315,Lisieux,FR,2022-05-07 18:17:56,49.1667,0.1667,59.32,90,80,7.38
316,Magdalena,PH,2022-05-07 18:17:56,14.1999,121.429,82.35,88,11,6.33
317,Don Sak,TH,2022-05-07 18:17:56,9.3168,99.6918,81.34,82,99,11.36
318,Baykit,RU,2022-05-07 18:17:57,61.67,96.37,29.1,88,97,11.83
319,Alyangula,AU,2022-05-07 18:17:57,-13.8483,136.4192,80.78,66,83,15.84
320,Fare,PF,2022-05-07 18:17:58,-16.7,-151.0167,80.83,77,2,6.96
321,Horadiz,AZ,2022-05-07 18:17:58,39.4488,47.3353,56.17,86,94,5.88
322,Palau,PW,2022-05-07 18:17:59,7.503,134.621,76.96,94,75,6.91
323,Dalby,AU,2022-05-07 18:17:59,-27.1833,151.2667,50.99,96,76,5.93
324,Myitkyina,MM,2022-05-07 18:18:00,25.3833,97.4,76.64,59,22,1.34
325,Ayagoz,KZ,2022-05-07 18:18:00,47.9714,80.4392,45.5,71,44,19.13
326,Moree,AU,2022-05-07 18:18:00,-29.4667,149.85,46.42,81,98,4.61
327,Bam,IR,2022-05-07 18:18:01,29.106,58.357,84.25,22,59,7.7
328,Edd,ER,2022-05-07 18:18:01,13.9297,41.6925,83.64,83,96,10.02
329,Lompoc,US,2022-05-07 18:14:31,34.6391,-120.4579,69.62,70,0,23.02
330,Cayenne,GF,2022-05-07 18:13:31,4.9333,-52.3333,82.44,1,75,6.91
331,Linxia,CN,2022-05-07 18:18:02,35.6003,103.2064,60.08,40,100,7.27
332,General Cepeda,MX,2022-05-07 18:18:02,25.3833,-101.45,94.06,16,0,8.05
333,Ixtapa,MX,2022-05-07 18:18:03,20.7,-105.2,79.83,65,0,11.5
334,Dehui,CN,2022-05-07 18:18:03,44.5333,125.7,51.78,26,13,15.39
335,Venado Tuerto,AR,2022-05-07 18:18:04,-33.7456,-61.9688,72.77,37,0,14.79
336,Snezhnogorsk,RU,2022-05-07 18:18:04,69.1933,33.2531,46.18,65,100,24.7
337,Tanete,ID,2022-05-07 18:18:05,-3.9443,119.7848,75.31,95,78,1.79
338,Abeche,TD,2022-05-07 18:18:05,13.8292,20.8324,92.12,10,24,6.76
339,Jaque,PA,2022-05-07 18:18:06,7.5175,-78.1703,83.68,75,59,8.57
340,Bogashevo,RU,2022-05-07 18:18:06,56.3683,85.1447,31.98,51,20,7.0
341,Springdale,US,2022-05-07 18:16:22,36.1867,-94.1288,74.57,66,0,8.05
342,Lazaro Cardenas,MX,2022-05-07 18:18:07,17.9583,-102.2,84.58,55,79,10.27
343,Pinega,RU,2022-05-07 18:18:07,64.7001,43.3936,45.27,89,67,9.15
344,Marang,MY,2022-05-07 18:18:08,5.2056,103.2059,80.51,89,97,9.31
345,Muhos,FI,2022-05-07 18:18:08,64.808,25.9931,40.78,72,93,8.28
346,Lazarev,RU,2022-05-07 18:18:09,52.225,141.5131,28.92,97,92,6.26
347,Agirish,RU,2022-05-07 18:18:09,61.9247,63.0231,34.63,98,96,4.59
348,Opunake,NZ,2022-05-07 18:18:10,-39.4556,173.8583,57.85,84,88,11.39
349,Sinnamary,GF,2022-05-07 18:18:10,5.3833,-52.95,81.19,83,53,10.4
350,Innisfail,AU,2022-05-07 18:18:10,-17.5333,146.0333,73.92,94,96,3.71
351,Peoria,US,2022-05-07 18:18:11,40.7667,-89.7668,67.6,47,0,13.8
352,Ciudad Bolivar,VE,2022-05-07 18:18:11,8.1222,-63.5497,81.75,65,100,3.62
353,Yar-Sale,RU,2022-05-07 18:18:12,66.8333,70.8333,15.37,94,31,8.72
354,Masallatah,LY,2022-05-07 18:18:12,32.6167,14.0,63.97,58,27,11.83
355,Tabou,CI,2022-05-07 18:18:13,4.423,-7.3528,82.56,76,91,8.77
356,Mutis,CO,2022-05-07 18:18:13,6.2262,-77.4044,85.3,70,65,7.34
357,Beyneu,KZ,2022-05-07 18:19:14,45.3167,55.2,67.08,38,82,19.86
358,Eureka,US,2022-05-07 18:19:14,40.8021,-124.1637,52.93,72,91,8.01
359,Grindavik,IS,2022-05-07 18:19:15,63.8424,-22.4338,48.15,76,75,25.32
360,Nara,JP,2022-05-07 18:18:56,34.6851,135.8049,61.5,50,99,6.4
361,Deer Lake,CA,2022-05-07 18:15:23,49.1667,-57.4316,37.26,52,75,11.5
362,Xichang,CN,2022-05-07 18:19:16,27.8964,102.2634,63.55,79,99,2.3
363,Stepnogorsk,KZ,2022-05-07 18:19:16,52.3544,71.8869,41.86,37,2,7.27
364,Christchurch,NZ,2022-05-07 18:15:00,-43.5333,172.6333,52.95,85,80,3.44
365,Ampanihy,MG,2022-05-07 18:19:17,-24.7,44.75,72.07,81,45,3.06
366,Rundu,NA,2022-05-07 18:19:17,-17.9333,19.7667,67.3,36,7,2.46
367,Pilar,BR,2022-05-07 18:19:18,-9.5972,-35.9567,82.33,65,60,8.81
368,Gold Coast,AU,2022-05-07 18:17:00,-28.0,153.4333,66.0,95,75,2.3
369,Kumluca,TR,2022-05-07 18:19:18,36.3703,30.2869,64.18,64,1,4.68
370,San Matias,BO,2022-05-07 18:19:19,-16.3667,-58.4,88.45,26,0,4.5
371,Gallatin,US,2022-05-07 18:17:17,45.6666,-111.2008,54.05,53,75,8.99
372,Egvekinot,RU,2022-05-07 18:19:19,66.3167,-179.1667,21.33,93,99,0.94
373,Xai-Xai,MZ,2022-05-07 18:19:20,-25.0519,33.6442,69.87,83,0,8.59
374,Nabire,ID,2022-05-07 18:19:20,-3.3667,135.4833,75.97,96,69,3.2
375,Van,TR,2022-05-07 18:15:23,38.4924,43.3831,45.75,81,75,11.5
376,Namatanai,PG,2022-05-07 18:19:21,-3.6667,152.4333,79.34,84,62,8.16
377,Saint-Philippe,RE,2022-05-07 18:19:22,-21.3585,55.7679,72.99,84,39,13.11
378,Puerto Narino,CO,2022-05-07 18:19:22,-3.7703,-70.3831,76.24,96,100,2.13
379,Irugur,IN,2022-05-07 18:19:23,11.0167,77.0667,73.63,94,75,10.36
380,Liverpool,GB,2022-05-07 18:18:28,53.4106,-2.9779,61.61,72,40,8.05
381,Nuqui,CO,2022-05-07 18:19:23,5.7125,-77.2708,83.66,74,92,8.1
382,Beloha,MG,2022-05-07 18:19:24,-25.1667,45.05,69.6,88,32,4.14
383,Moose Factory,CA,2022-05-07 18:19:24,51.2585,-80.6094,48.2,49,0,13.8
384,Superior,US,2022-05-07 18:19:25,46.7208,-92.1041,69.44,48,0,11.5
385,Port-Gentil,GA,2022-05-07 18:19:25,-0.7193,8.7815,80.56,83,20,2.3
386,Coro,VE,2022-05-07 18:19:26,11.4045,-69.6734,84.09,71,100,12.57
387,Abastumani,GE,2022-05-07 18:19:26,41.7075,42.8457,43.21,94,100,3.11
388,Oranjemund,NA,2022-05-07 18:19:27,-28.55,16.4333,57.11,84,0,15.05
389,Chake Chake,TZ,2022-05-07 18:19:27,-5.2459,39.7666,78.82,82,58,11.5
390,Phimai,TH,2022-05-07 18:19:28,15.2232,102.4947,81.1,81,99,1.43
391,Cabedelo,BR,2022-05-07 18:19:28,-6.9811,-34.8339,84.87,75,97,12.39
392,San Vicente De Canete,PE,2022-05-07 18:19:29,-13.0751,-76.3835,71.02,74,29,6.24
393,Kirundo,BI,2022-05-07 18:19:29,-2.5833,30.1667,61.86,91,55,3.04
394,Lac Du Bonnet,CA,2022-05-07 18:15:22,50.2536,-96.0612,71.67,42,55,16.58
395,South Lake Tahoe,US,2022-05-07 18:19:30,38.9332,-119.9844,58.8,22,0,15.01
396,Honolulu,US,2022-05-07 18:17:56,21.3069,-157.8583,75.02,73,75,11.99
397,Upernavik,GL,2022-05-07 18:19:31,72.7868,-56.1549,19.09,70,5,6.67
398,Albemarle,US,2022-05-07 18:19:31,35.3501,-80.2001,71.46,79,40,10.36
399,Tocopilla,CL,2022-05-07 18:16:09,-22.092,-70.1979,67.42,68,22,6.08
400,Djambala,CG,2022-05-07 18:20:32,-2.5447,14.7533,68.43,94,100,2.17
401,Lakes Entrance,AU,2022-05-07 18:20:32,-37.8811,147.981,56.16,71,98,16.44
402,Mao,ES,2022-05-07 18:20:33,39.8885,4.2658,64.96,59,20,9.22
403,Lumeje,AO,2022-05-07 18:20:34,-11.55,20.7833,73.74,50,87,3.89
404,Ponta Delgada,PT,2022-05-07 18:20:34,37.7333,-25.6667,66.92,88,20,5.75
405,Beringovskiy,RU,2022-05-07 18:20:34,63.05,179.3167,27.43,92,100,6.24
406,Narsaq,GL,2022-05-07 18:20:35,60.9167,-46.05,53.82,74,100,2.62
407,Vancouver,CA,2022-05-07 18:20:31,49.2497,-123.1193,53.1,75,75,8.99
408,Gombe,NG,2022-05-07 18:20:35,10.2897,11.1673,89.08,39,84,19.24
409,Araouane,ML,2022-05-07 18:20:36,18.9048,-3.5265,99.84,9,0,11.18
410,Bengkulu,ID,2022-05-07 18:20:36,-3.8004,102.2655,76.33,90,99,6.91
411,Diamantino,BR,2022-05-07 18:20:37,-14.4086,-56.4461,86.41,34,0,6.24
412,Kearney,US,2022-05-07 18:18:02,40.6995,-99.0815,72.16,69,40,23.02
413,Bokoro,TD,2022-05-07 18:20:37,12.3807,17.0568,103.12,16,91,9.84
414,San Pedro,PH,2022-05-07 18:16:13,14.35,121.0167,83.43,76,20,5.75
415,Manyana,BW,2022-05-07 18:20:38,-23.4,21.7167,67.32,26,48,4.14
416,Kloulklubed,PW,2022-05-07 18:20:38,7.0419,134.2556,77.5,80,100,15.19
417,Tomatlan,MX,2022-05-07 18:20:39,19.9333,-105.25,89.82,41,13,10.02
418,Pacific Grove,US,2022-05-07 18:20:39,36.6177,-121.9166,67.55,72,40,13.8
419,Naliya,IN,2022-05-07 18:20:40,23.2667,68.8333,81.61,75,0,11.65
420,Katobu,ID,2022-05-07 18:20:40,-4.9408,122.5276,76.44,92,95,4.88
421,Porto Walter,BR,2022-05-07 18:20:41,-8.2686,-72.7439,88.41,49,68,3.69
422,Patterson,US,2022-05-07 18:20:41,37.4716,-121.1297,69.55,45,4,9.64
423,Port Blair,IN,2022-05-07 18:20:41,11.6667,92.75,84.24,79,75,9.22
424,Jimenez,MX,2022-05-07 18:20:42,28.3333,-105.4,91.98,7,1,2.39
425,El Reno,US,2022-05-07 18:20:42,35.5323,-97.955,79.34,67,0,20.71
426,Nuuk,GL,2022-05-07 18:20:43,64.1835,-51.7216,34.41,69,0,12.66
427,Sibu,MY,2022-05-07 18:20:43,2.3,111.8167,77.31,100,20,1.14
428,Chingirlau,KZ,2022-05-07 18:20:44,51.095,54.0814,47.21,45,76,9.57
429,Coolum Beach,AU,2022-05-07 18:20:44,-26.5333,153.1,66.22,92,92,8.7
430,Humaita,BR,2022-05-07 18:20:45,-7.5061,-63.0208,81.54,88,88,3.91
431,Nang Rong,TH,2022-05-07 18:20:45,14.6377,102.7914,78.98,82,94,1.66
432,Basco,PH,2022-05-07 18:20:45,20.4487,121.9702,82.24,81,94,14.12
433,Mandan,US,2022-05-07 18:20:46,46.8267,-100.8896,70.38,67,0,27.63
434,Assiniboia,CA,2022-05-07 18:19:51,49.6334,-105.9845,60.53,57,100,14.61
435,Makakilo City,US,2022-05-07 18:20:46,21.3469,-158.0858,73.72,70,75,11.5
436,Pangnirtung,CA,2022-05-07 18:20:47,66.1451,-65.7125,15.8,86,75,8.05
437,Kenora,CA,2022-05-07 18:20:47,49.8167,-94.4337,68.97,34,40,19.57
438,Geraldton,AU,2022-05-07 18:20:48,-28.7667,114.6,54.01,94,75,6.91
439,Maragogi,BR,2022-05-07 18:20:48,-9.0122,-35.2225,80.1,80,35,7.56
440,Talnakh,RU,2022-05-07 18:17:16,69.4865,88.3972,11.21,80,20,14.18
441,Bilma,NE,2022-05-07 18:20:49,18.6853,12.9164,97.14,12,91,5.41
442,Paamiut,GL,2022-05-07 18:20:49,61.994,-49.6678,34.23,85,28,12.03
443,Mount Gambier,AU,2022-05-07 18:20:49,-37.8333,140.7667,49.41,88,66,4.81
444,Avera,US,2022-05-07 18:20:38,33.194,-82.5271,71.11,51,58,13.67
445,Hami,CN,2022-05-07 18:20:50,42.8,93.45,73.08,28,2,2.8
446,Aitape,PG,2022-05-07 18:21:50,-3.1374,142.3475,79.38,87,97,5.88
447,Champerico,GT,2022-05-07 18:21:51,14.3,-91.9167,93.74,68,98,8.01
448,Aykhal,RU,2022-05-07 18:21:51,66.0,111.5,31.44,99,100,7.83
449,Hambantota,LK,2022-05-07 18:21:52,6.1241,81.1185,81.54,81,79,13.96
450,Churapcha,RU,2022-05-07 18:21:52,62.0025,132.4325,30.94,96,100,4.47
451,Teacapan,MX,2022-05-07 18:21:52,22.55,-105.75,81.16,62,5,9.51
452,Sabae,JP,2022-05-07 18:21:53,35.9465,136.185,52.79,90,94,8.08
453,Davila,PH,2022-05-07 18:21:53,18.4726,120.5763,80.58,78,100,6.55
454,Mnogovershinnyy,RU,2022-05-07 18:21:54,53.9353,139.9242,25.05,82,37,2.59
455,Gizo,SB,2022-05-07 18:21:54,-8.103,156.8419,82.76,77,86,7.4
456,Sandorfalva,HU,2022-05-07 18:21:55,46.3609,20.0989,67.14,65,100,1.88
457,Pozo Colorado,PY,2022-05-07 18:21:55,-23.4923,-58.7972,84.96,31,7,3.74
458,Mosalsk,RU,2022-05-07 18:21:55,54.4881,34.9817,48.7,79,100,8.5
459,Fairbanks,US,2022-05-07 18:20:33,64.8378,-147.7164,43.09,94,100,1.99
460,Longyearbyen,SJ,2022-05-07 18:21:56,78.2186,15.6401,13.84,67,75,10.36
461,Cabimas,VE,2022-05-07 18:21:57,10.3883,-71.4399,83.01,71,93,4.21
462,Astoria,US,2022-05-07 18:21:58,46.1879,-123.8313,51.85,77,75,13.8
463,Abha,SA,2022-05-07 18:21:58,18.2164,42.5053,66.45,68,20,3.44
464,Waipawa,NZ,2022-05-07 18:21:59,-41.4122,175.5153,56.08,74,99,13.89
465,Lata,PT,2022-05-07 18:18:48,40.1629,-8.3327,73.26,42,100,6.76
466,Chara,RU,2022-05-07 18:21:59,56.9064,118.2631,35.85,49,27,1.7
467,Ozernovskiy,RU,2022-05-07 18:22:00,51.5,156.5167,35.65,97,92,5.46
468,Meulaboh,ID,2022-05-07 18:22:00,4.1363,96.1285,77.0,90,100,6.24
469,Belle Fourche,US,2022-05-07 18:22:01,44.6714,-103.8522,75.33,26,100,22.7
470,Caravelas,BR,2022-05-07 18:22:02,-17.7125,-39.2481,74.35,89,64,12.93
471,Alpena,US,2022-05-07 18:21:22,45.0617,-83.4327,55.72,36,0,10.0
472,Havelock,US,2022-05-07 18:22:02,34.8791,-76.9013,80.98,69,75,12.66
473,Chaiya,TH,2022-05-07 18:22:03,9.3862,99.1986,79.9,85,98,3.74
474,Plouzane,FR,2022-05-07 18:22:03,48.3833,-4.6167,59.05,72,0,9.22
475,Saldanha,ZA,2022-05-07 18:22:04,-33.0117,17.9442,55.45,67,1,21.05
476,Daru,PG,2022-05-07 18:22:04,-9.0763,143.2092,79.77,90,54,12.15
477,Tynda,RU,2022-05-07 18:22:05,55.1667,124.7167,29.28,87,4,2.06
478,Sao Filipe,CV,2022-05-07 18:22:05,14.8961,-24.4956,74.14,76,46,17.25
479,Skjervoy,NO,2022-05-07 18:22:05,70.0311,20.9714,33.8,83,99,40.89
480,Minnedosa,CA,2022-05-07 18:22:06,50.2453,-99.8436,64.96,56,100,19.37
481,Roanoke Rapids,US,2022-05-07 18:18:04,36.4615,-77.6542,69.21,88,75,6.91
482,Anuradhapura,LK,2022-05-07 18:22:06,8.3565,80.4173,77.79,93,99,8.05
483,Buchanan,LR,2022-05-07 18:22:11,5.8808,-10.0467,82.58,79,87,10.76
484,High Rock,BS,2022-05-07 18:22:11,26.6208,-78.2833,82.42,72,8,17.76
485,Kropotkin,RU,2022-05-07 18:18:54,45.4375,40.5756,47.66,74,100,6.02
486,Zaozerne,UA,2022-05-07 18:22:12,45.1582,33.2787,50.59,69,6,12.84
487,Coihaique,CL,2022-05-07 18:22:13,-45.5752,-72.0662,61.41,82,75,3.44
488,Uyuni,BO,2022-05-07 18:22:13,-20.4597,-66.825,60.69,20,31,13.04
489,San Policarpo,PH,2022-05-07 18:22:14,12.1791,125.5072,80.92,84,36,13.58
490,Sao Jose Da Coroa Grande,BR,2022-05-07 18:22:14,-8.8978,-35.1478,79.5,81,54,8.39
491,Nova Granada,BR,2022-05-07 18:22:15,-20.5339,-49.3142,80.85,41,0,4.88
492,Apatou,GF,2022-05-07 18:22:15,5.155,-54.3472,80.53,92,87,3.91
493,Palmer,US,2022-05-07 18:19:26,42.1584,-72.3287,54.91,42,75,18.41
494,Salinopolis,BR,2022-05-07 18:23:16,-0.6136,-47.3561,81.88,80,79,6.98
495,Bukachacha,RU,2022-05-07 18:23:16,52.9833,116.9167,41.05,25,9,1.79
496,Hamilton,US,2022-05-07 18:23:17,39.1834,-84.5333,59.88,78,100,16.11
497,Leningradskiy,RU,2022-05-07 18:23:17,69.3833,178.4167,20.7,95,99,2.84
498,Kenai,US,2022-05-07 18:23:17,60.5544,-151.2583,48.29,65,0,11.5
499,Nishihara,JP,2022-05-07 18:23:18,26.1842,127.7558,76.28,88,75,11.5
500,Dingli,MT,2022-05-07 18:23:18,35.8614,14.3822,62.82,82,40,8.05
501,Ravenna,IT,2022-05-07 18:20:20,44.4167,11.9833,62.49,87,100,2.68
502,Huarmey,PE,2022-05-07 18:23:19,-10.0681,-78.1522,71.33,76,22,12.41
503,Sao Felix Do Xingu,BR,2022-05-07 18:20:36,-6.6447,-51.995,89.96,50,28,5.39
504,North Bend,US,2022-05-07 18:23:19,43.4065,-124.2243,52.92,86,100,14.97
505,Cervo,ES,2022-05-07 18:23:20,43.6702,-7.4101,61.97,82,88,10.04
506,El Angel,EC,2022-05-07 18:23:20,0.6167,-77.9333,57.31,59,39,4.83
507,Juneau,US,2022-05-07 18:22:35,58.3019,-134.4197,46.4,85,75,9.22
508,Ahvaz,IR,2022-05-07 18:18:39,31.3203,48.6693,85.95,14,0,9.22
509,Kupang,ID,2022-05-07 18:23:24,-10.1667,123.5833,79.21,83,22,12.64
510,Ancud,CL,2022-05-07 18:23:24,-41.8697,-73.8203,55.18,89,100,19.08
511,Khorol,UA,2022-05-07 18:23:25,49.7837,33.2783,52.56,57,100,4.47
512,Walvis Bay,NA,2022-05-07 18:23:25,-22.9575,14.5053,63.55,59,1,10.36
513,Mukhen,RU,2022-05-07 18:23:26,48.1,136.1,41.68,79,100,7.47
514,Mackay,AU,2022-05-07 18:23:26,-21.15,149.2,72.68,89,98,15.14
515,Kalagarh,IN,2022-05-07 18:23:27,29.5,78.75,80.67,22,0,4.99
516,Moerai,PF,2022-05-07 18:21:47,-22.4333,-151.3333,78.94,81,34,16.53
517,Amur,RU,2022-05-07 18:22:54,54.0,128.0,27.64,65,4,1.79
518,Mbigou,GA,2022-05-07 18:23:28,-1.9005,11.906,69.33,97,100,2.48
519,Victor Harbor,AU,2022-05-07 18:23:28,-35.5667,138.6167,51.67,76,17,1.68
520,Westport,US,2022-05-07 18:19:36,41.1415,-73.3579,55.22,62,100,21.85
521,Petropavlovskoye,RU,2022-05-07 18:23:29,52.0712,84.107,40.06,77,87,5.88
522,Dunfermline,GB,2022-05-07 18:23:29,56.0716,-3.4589,57.94,78,0,10.36
523,Sorrento,IT,2022-05-07 18:21:14,40.626,14.3744,63.66,81,100,3.0
524,Moron,AR,2022-05-07 18:23:30,-34.6534,-58.6198,75.94,60,10,6.93
525,Sioux Lookout,CA,2022-05-07 18:23:30,50.1001,-91.917,64.47,34,75,8.05
526,Saint-Pierre,RE,2022-05-07 18:23:31,-21.3393,55.4781,73.08,78,0,5.75
527,Bonfim,BR,2022-05-07 18:23:31,3.0833,-59.95,82.36,69,100,5.79
528,Aksu,CN,2022-05-07 18:23:32,41.1231,80.2644,74.64,31,84,9.53
529,Santarem,BR,2022-05-07 18:23:32,-2.4431,-54.7083,86.13,79,20,8.05
530,Gubkinskiy,RU,2022-05-07 18:23:33,64.434,76.5026,6.4,93,7,6.8
531,Shaoguan,CN,2022-05-07 18:23:33,24.8,113.5833,70.5,96,100,1.14
532,Ayan,RU,2022-05-07 18:23:33,56.45,138.1667,33.94,76,20,10.76
533,Sorland,NO,2022-05-07 18:23:34,67.667,12.6934,37.63,57,100,25.93
534,San Carlos De Bariloche,AR,2022-05-07 18:23:34,-41.1456,-71.3082,60.55,51,40,19.57
535,Birao,CF,2022-05-07 18:23:35,10.2849,22.7882,90.64,22,100,4.9
536,Awbari,LY,2022-05-07 18:23:35,26.5921,12.7805,81.88,16,0,11.63
537,Bardiyah,LY,2022-05-07 18:23:36,31.7561,25.0865,65.23,67,100,15.48
538,Onverwacht,SR,2022-05-07 18:24:36,5.5833,-55.1833,78.98,94,40,12.66
539,Primero De Marzo,PY,2022-05-07 18:24:37,-25.153,-56.928,79.11,38,46,4.12
540,Ostersund,SE,2022-05-07 18:23:17,63.1792,14.6357,36.61,64,75,21.85
541,Plettenberg Bay,ZA,2022-05-07 18:24:37,-34.0527,23.3716,56.34,85,95,1.32
542,Penzance,GB,2022-05-07 18:24:38,50.1186,-5.5371,59.68,87,98,9.66
543,Puerto Del Rosario,ES,2022-05-07 18:24:38,28.5004,-13.8627,71.35,73,0,16.11
544,Umm Lajj,SA,2022-05-07 18:24:38,25.0213,37.2685,77.63,53,0,14.38
545,Rathdrum,US,2022-05-07 18:24:39,47.8137,-116.892,50.81,87,100,9.22
546,Fortuna,US,2022-05-07 18:24:39,40.5982,-124.1573,52.66,92,83,5.99
547,Ahuimanu,US,2022-05-07 18:24:40,21.4447,-157.8378,74.91,75,100,11.5
548,Piacabucu,BR,2022-05-07 18:24:40,-10.4056,-36.4344,82.0,64,32,8.75
549,Mikkeli,FI,2022-05-07 18:24:41,61.6886,27.2723,39.31,93,100,5.75
550,Pala,TD,2022-05-07 18:24:41,9.3642,14.9046,90.32,40,100,4.52
551,Launceston,AU,2022-05-07 18:24:42,-41.45,147.1667,48.34,78,40,5.75
552,Tolaga Bay,NZ,2022-05-07 18:24:42,-38.3667,178.3,51.17,86,13,5.66
553,Tilichiki,RU,2022-05-07 18:21:08,60.4667,166.1,29.88,98,100,2.39
554,Harper,LR,2022-05-07 18:24:42,4.375,-7.7169,82.44,76,95,9.44
555,Dhidhdhoo,MV,2022-05-07 18:24:43,6.8833,73.1,85.24,72,88,11.79
556,Lago Da Pedra,BR,2022-05-07 18:24:43,-4.3333,-45.1667,86.94,64,86,3.09
557,Show Low,US,2022-05-07 18:24:44,34.2542,-110.0298,74.08,11,0,28.77
558,Bennettsville,US,2022-05-07 18:24:44,34.6174,-79.6848,76.82,63,100,10.36
559,Muroto,JP,2022-05-07 18:24:45,33.2833,134.15,65.62,77,8,11.18
560,Ivanteyevka,RU,2022-05-07 18:24:45,55.9711,37.9208,59.54,70,89,9.35
561,Gamba,GA,2022-05-07 18:20:28,-2.65,10.0,77.63,84,84,2.82
562,Iskateley,RU,2022-05-07 18:24:46,67.6803,53.1512,36.99,100,100,12.88
563,Nastola,FI,2022-05-07 18:24:46,60.95,25.9333,39.83,89,100,6.8
564,Mersing,MY,2022-05-07 18:24:47,2.4312,103.8405,76.91,94,40,5.75
565,Cooma,AU,2022-05-07 18:24:47,-36.2333,149.1333,35.37,86,50,2.3
566,Hirara,JP,2022-05-07 18:21:12,24.8,125.2833,77.34,84,89,4.16
